{
  "id": "data",
  "places": [
    {
      "latitude": 25.315058,
      "longitude": 51.145517,
      "country": "QA",
      "name": "Qatar",
      "id": "0m4aECS0Z2DGFEr8ldgI",
      "createdAt": "2020-02-29T15:41:02.240Z"
    },
    {
      "longitude": 108.472214,
      "country": "CN",
      "name": "Shaanxi",
      "id": "0x2HLhr5z5xAtEdO4iZm",
      "createdAt": "2020-01-26T14:29:09.886Z",
      "latitude": 35.64249
    },
    {
      "latitude": 41.643351,
      "longitude": 21.668393,
      "country": "MK",
      "name": "North Macedonia",
      "id": "19MvIhipqTyYv1H37Upw",
      "createdAt": "2020-02-27T01:11:02.520Z"
    },
    {
      "latitude": 35.801933,
      "longitude": 96.779286,
      "country": "CN",
      "name": "Qinghai",
      "id": "1Fap7rZu9SIRqf5TG9Dg",
      "createdAt": "2020-01-25T14:39:41.495Z"
    },
    {
      "longitude": -51.925282,
      "country": "BR",
      "name": "Brazil",
      "id": "1f0YoV0vAcexEhpESyZc",
      "createdAt": "2020-02-26T15:39:20.094Z",
      "latitude": -14.235004
    },
    {
      "latitude": 30.15336,
      "longitude": 88.787865,
      "country": "CN",
      "name": "Tibet",
      "id": "25qIBtsW2nfQj3pwBKg9",
      "createdAt": "2020-01-31T01:31:18.045Z"
    },
    {
      "id": "2OrsssmGUs4XCzaZzvTv",
      "createdAt": "2020-02-29T15:39:38.797Z",
      "latitude": 45.502923,
      "longitude": -122.674964,
      "country": "US",
      "name": "Portland"
    },
    {
      "id": "2jxHvSsxdnom0nPNvOT8",
      "createdAt": "2020-01-25T14:35:06.255Z",
      "latitude": 43.851921,
      "longitude": 126.548103,
      "country": "CN",
      "name": "Jilin"
    },
    {
      "longitude": -127.6476,
      "country": "CA",
      "name": "British Columbia",
      "id": "4hfZRUoUgI4a3vrG0GBk",
      "createdAt": "2020-01-29T00:33:12.033Z",
      "latitude": 53.7267
    },
    {
      "longitude": 47.93802,
      "country": "AZ",
      "name": "Azerbaijan",
      "id": "4zqzRm2xHn0CDVOUQJ8p",
      "createdAt": "2020-02-29T15:17:57.358Z",
      "latitude": 40.3426
    },
    {
      "latitude": -31.253218,
      "longitude": 146.921097,
      "country": "AU",
      "name": "New South Wales",
      "id": "5N16a2OXXRpsEFanw0TC",
      "createdAt": "2020-01-28T04:08:36.805Z"
    },
    {
      "latitude": 34.052235,
      "longitude": -118.243683,
      "country": "US",
      "name": "Los Angeles, CA",
      "id": "5dWKyF370Ds0uenLz4Z5",
      "createdAt": "2020-02-02T06:11:54.337Z"
    },
    {
      "id": "5gXZIjRgAvd6xWN1LOv8",
      "createdAt": "2020-01-26T14:40:52.425Z",
      "latitude": 28.394857,
      "longitude": 84.124008,
      "country": "NP",
      "name": "Nepal"
    },
    {
      "longitude": 121.774017,
      "country": "PH",
      "name": "Philippines",
      "id": "5pwmh7aSdGRKqRbnuyc0",
      "createdAt": "2020-01-30T13:57:19.356Z",
      "latitude": 12.879721
    },
    {
      "latitude": 55.621011,
      "longitude": 23.804991,
      "country": "LT",
      "name": "Lithuania",
      "id": "694ON7d0mRJDeM1gHBTR",
      "createdAt": "2020-02-28T03:06:16.522Z"
    },
    {
      "latitude": 22.396427,
      "longitude": 114.109497,
      "country": "HK",
      "name": "Hong Kong",
      "id": "6IcHIIH0zXpY0POmBZTv",
      "createdAt": "2020-01-26T14:34:21.089Z"
    },
    {
      "latitude": 1.352083,
      "longitude": 103.819839,
      "country": "SG",
      "name": "Singapore",
      "id": "8pA3fM4xC2c2wv1b4TnE",
      "createdAt": "2020-01-26T14:36:51.603Z"
    },
    {
      "latitude": 45.943161,
      "longitude": 24.966761,
      "country": "RO",
      "name": "Romania",
      "id": "9QcETqEcM2fTv9zRvx5T",
      "createdAt": "2020-02-27T01:09:04.955Z"
    },
    {
      "latitude": 61.92411,
      "longitude": 25.748152,
      "country": "FI",
      "name": "Finland",
      "id": "9p6OCdZbUUwBLA60Gk3W",
      "createdAt": "2020-01-30T05:51:51.788Z"
    },
    {
      "longitude": 116.01609,
      "country": "CN",
      "name": "Jiangxi",
      "id": "AmBYm5J6E9Cuez1FQjiN",
      "createdAt": "2020-01-23T10:02:03.143Z",
      "latitude": 27.285971
    },
    {
      "latitude": 28.033886,
      "longitude": 1.659626,
      "country": "DZ",
      "name": "Algeria",
      "id": "AwN0CScPDApcLFgz6e3z",
      "createdAt": "2020-02-26T02:18:52.169Z"
    },
    {
      "latitude": 10.850516,
      "longitude": 76.27108,
      "country": "IN",
      "name": "Kerala",
      "id": "B05tcRxZlMUSyed5WcAA",
      "createdAt": "2020-01-30T13:51:08.761Z"
    },
    {
      "latitude": 45.099998,
      "longitude": 15.2,
      "country": "HR",
      "name": "Croatia",
      "id": "B82Ef45M8cDu4q7VsSHF",
      "createdAt": "2020-02-26T02:16:57.033Z"
    },
    {
      "latitude": 40.23985,
      "longitude": -100.996784,
      "country": "US",
      "name": "United States (From Diamond Princess)",
      "id": "BCFAwm0wjOZlbPfnttGd",
      "createdAt": "2020-02-26T02:20:33.355Z"
    },
    {
      "id": "BGg6yVU5VP71B8NXU0oh",
      "createdAt": "2020-02-29T15:20:21.226Z",
      "latitude": 53.709808,
      "longitude": 27.953388,
      "country": "BY",
      "name": "Belarus"
    },
    {
      "latitude": 33.42744,
      "longitude": -111.94012,
      "country": "US",
      "name": "Tempe, AZ",
      "id": "BTEESCuD2ZbS1afunR2A",
      "createdAt": "2020-01-28T04:10:38.606Z"
    },
    {
      "longitude": 15.359413,
      "country": "CZ",
      "name": "Czech Republic",
      "id": "C6S76AggdWVU8G22jFHQ",
      "createdAt": "2020-03-01T16:22:37.304Z",
      "latitude": 49.731626
    },
    {
      "latitude": 26.0667,
      "longitude": 50.557701,
      "country": "BH",
      "name": "Bahrain",
      "id": "C7cj4nwRITs13KnaJrQ2",
      "createdAt": "2020-02-24T11:55:55.645Z"
    },
    {
      "longitude": -1.17432,
      "country": "GB",
      "name": "United Kingdom",
      "id": "CrXu6i5Sqx11iwdfHfBs",
      "createdAt": "2020-01-31T14:26:02.737Z",
      "latitude": 52.355518
    },
    {
      "latitude": 40.259003,
      "longitude": 44.818474,
      "country": "AM",
      "name": "Armenia",
      "id": "DCJCtZoBTWQ4mzdDNljD",
      "createdAt": "2020-03-01T16:21:49.483Z"
    },
    {
      "latitude": 22.192039,
      "longitude": 113.551262,
      "country": "MO",
      "name": "Macao",
      "id": "DdBt8qsG6A3g92oOR3ow",
      "createdAt": "2020-01-26T14:38:24.096Z"
    },
    {
      "latitude": 40.6401,
      "longitude": 22.9444,
      "country": "GR",
      "name": "Greece",
      "id": "Dtr1lap1RpJpXJdXGJiW",
      "createdAt": "2020-02-26T12:56:43.059Z"
    },
    {
      "latitude": 25.03841,
      "longitude": 121.563698,
      "country": "TW",
      "name": "Taiwan",
      "id": "EKTfs8e7M6DXzI1HqyyX",
      "createdAt": "2020-01-26T14:36:10.391Z"
    },
    {
      "latitude": 33.93911,
      "longitude": 67.709953,
      "country": "AF",
      "name": "Afghanistan",
      "id": "FCDmlmnIIswd8bQiUjfN",
      "createdAt": "2020-02-24T11:55:36.808Z"
    },
    {
      "id": "FErOU1m4Tj7jIkRam3vF",
      "createdAt": "2020-01-20T10:02:03.143Z",
      "latitude": 29.431585,
      "longitude": 106.912254,
      "country": "CN",
      "name": "Chongqing"
    },
    {
      "latitude": 29.311661,
      "longitude": 47.481766,
      "country": "KW",
      "name": "Kuwait",
      "id": "FZsUkhxBEgqsPb4eO0PN",
      "createdAt": "2020-02-24T11:56:29.314Z"
    },
    {
      "longitude": -70.430399,
      "country": "DO",
      "name": "Dominican Republic",
      "id": "FuiVEJvWb0QMCpxJ3563",
      "createdAt": "2020-03-01T16:23:09.245Z",
      "latitude": 18.947829
    },
    {
      "latitude": 30.37532,
      "longitude": 69.345116,
      "country": "PK",
      "name": "Pakistan",
      "id": "GAp7Wb6IMhdgbvEtMza9",
      "createdAt": "2020-02-27T01:08:00.245Z"
    },
    {
      "latitude": 23.424076,
      "longitude": 53.847816,
      "country": "AE",
      "name": "United Arab Emirates",
      "id": "GHzBIsHy2GiBc5JV2HMs",
      "createdAt": "2020-01-29T13:25:28.222Z"
    },
    {
      "longitude": -121.951076,
      "country": "US",
      "name": "Santa Clara, CA",
      "id": "Gh46r6vuaY7fbGt3IboN",
      "createdAt": "2020-02-02T06:12:52.802Z",
      "latitude": 37.355589
    },
    {
      "id": "GyRw3erENO83NSxsZ1Iw",
      "createdAt": "2020-02-02T06:12:21.276Z",
      "latitude": 33.717472,
      "longitude": -117.831146,
      "country": "US",
      "name": "Orange, CA"
    },
    {
      "latitude": 42.83263,
      "longitude": 113.750972,
      "country": "CN",
      "name": "Inner Mongolia",
      "id": "H3JeVigVbo5CSYfZG4WI",
      "createdAt": "2020-01-26T14:31:15.593Z"
    },
    {
      "id": "I4OJ6z9Vjs1byOcbsJrd",
      "createdAt": "2020-02-29T15:31:28.013Z",
      "latitude": 23.634501,
      "longitude": -102.552788,
      "country": "MX",
      "name": "Mexico"
    },
    {
      "id": "IAX0OQLVnUwU7FX0ENF1",
      "createdAt": "2020-01-23T10:02:03.143Z",
      "latitude": 23.363855,
      "longitude": 113.373448,
      "country": "CN",
      "name": "Guangdong"
    },
    {
      "latitude": 33.875408,
      "longitude": 113.484016,
      "country": "CN",
      "name": "Henan",
      "id": "IFuMrMvSjoiX5agYvllh",
      "createdAt": "2020-01-20T10:02:03.143Z"
    },
    {
      "latitude": 47.605073,
      "longitude": -122.3304,
      "country": "US",
      "name": "Seattle, WA",
      "id": "IaIoFRxP77clckBXWQyl",
      "createdAt": "2020-02-02T06:14:19.596Z"
    },
    {
      "id": "IvVhpOoGpH6JVkGyUhXN",
      "createdAt": "2020-02-29T15:35:18.294Z",
      "latitude": -42.8285,
      "longitude": 172.488081,
      "country": "NZ",
      "name": "New Zealand"
    },
    {
      "latitude": 7.873054,
      "longitude": 80.771797,
      "country": "LK",
      "name": "Sri Lanka",
      "id": "KsWzJO06cf0d6LJ4ZNh9",
      "createdAt": "2020-01-28T04:12:37.112Z"
    },
    {
      "latitude": 61.52401,
      "longitude": 105.318756,
      "country": "RU",
      "name": "Russia",
      "id": "KwOuGBKSMRlmwftxAvLX",
      "createdAt": "2020-01-31T15:33:01.626Z"
    },
    {
      "id": "LMZDH0M8KhjEgkOoUUOt",
      "createdAt": "2020-02-03T02:20:35.179Z",
      "latitude": 36.516521,
      "longitude": -121.082002,
      "country": "US",
      "name": "San Benito, CA"
    },
    {
      "longitude": 105.977203,
      "country": "CN",
      "name": "Ningxia",
      "id": "MntmjjuHljarCdt6aIeE",
      "createdAt": "2020-01-26T14:34:45.601Z",
      "latitude": 37.330509
    },
    {
      "latitude": 37.242565,
      "longitude": 111.856857,
      "country": "CN",
      "name": "Shanxi",
      "id": "NBRIGIRrJB1Ry8prDNAC",
      "createdAt": "2020-01-26T14:30:51.205Z"
    },
    {
      "longitude": -87.631753,
      "country": "US",
      "name": "Chicago, IL",
      "id": "PTwQr9ijo0TBBsPH2sdJ",
      "createdAt": "2020-01-26T14:40:22.397Z",
      "latitude": 41.908724
    },
    {
      "longitude": 143.94853,
      "country": "AU",
      "name": "Victoria",
      "id": "Q18mrGvFWTLX2BU9SqhQ",
      "createdAt": "2020-01-28T04:09:40.804Z",
      "latitude": -37.009609
    },
    {
      "longitude": 25.013607,
      "country": "EE",
      "name": "Estonia",
      "id": "QR9go2hQKXjty7JHUYe4",
      "createdAt": "2020-02-27T14:18:14.508Z",
      "latitude": 58.595272
    },
    {
      "latitude": 43.653225,
      "longitude": -79.383186,
      "country": "CA",
      "name": "Toronto, ON",
      "id": "Rx4TuyMpfGb3S8wYJX0x",
      "createdAt": "2020-02-04T01:11:36.441Z"
    },
    {
      "latitude": 46.818188,
      "longitude": 8.227512,
      "country": "CH",
      "name": "Switzerland",
      "id": "SGe9sCPayMqh6RsGFaBA",
      "createdAt": "2020-02-26T02:17:59.804Z"
    },
    {
      "longitude": -73.581878,
      "country": "CA",
      "name": "Montreal",
      "id": "SHoOE3NiJgWAlDVBzwYH",
      "createdAt": "2020-02-29T15:33:44.726Z",
      "latitude": 45.505029
    },
    {
      "latitude": 12.565679,
      "longitude": 104.990967,
      "country": "KH",
      "name": "Cambodia",
      "id": "SioMALgUbo7peXmbco2f",
      "createdAt": "2020-01-28T04:11:40.096Z"
    },
    {
      "latitude": 55.675758,
      "longitude": 12.56902,
      "country": "DK",
      "name": "Denmark",
      "id": "Ty1AY3VLPJcRZgdBIERx",
      "createdAt": "2020-02-27T14:17:28.746Z"
    },
    {
      "latitude": 36.395859,
      "longitude": 118.769882,
      "country": "CN",
      "name": "Shandong",
      "id": "U0tkTJ9CGsBuFJ2Gdoum",
      "createdAt": "2020-01-26T10:02:03.143Z"
    },
    {
      "latitude": 43.94236,
      "longitude": 12.457777,
      "country": "SM",
      "name": "San Marino",
      "id": "U12rMD5GDW58Q0lIwrB1",
      "createdAt": "2020-02-28T03:08:24.136Z"
    },
    {
      "longitude": 138.25293,
      "country": "JP",
      "name": "Japan",
      "id": "U13Gy4BpRLAZ95bPmBXd",
      "createdAt": "2020-01-26T14:38:50.302Z",
      "latitude": 36.204823
    },
    {
      "latitude": 49.641737,
      "longitude": 6.223823,
      "country": "LU",
      "name": "Luxembourg",
      "id": "V9pw81ZdEmysV9UqJBum",
      "createdAt": "2020-03-01T16:24:45.969Z"
    },
    {
      "latitude": 25.181129,
      "longitude": 101.864143,
      "country": "CN",
      "name": "Yunnan",
      "id": "VIf8T8PD3ZzlzAm5eBCX",
      "createdAt": "2020-01-24T14:30:29.110Z"
    },
    {
      "id": "XBBw0iMPrmiEu3qogkbi",
      "createdAt": "2020-01-23T14:26:38.795Z",
      "latitude": 25.92448,
      "longitude": 118.278992,
      "country": "CN",
      "name": "Fujian"
    },
    {
      "latitude": 51.165691,
      "longitude": 10.451526,
      "country": "DE",
      "name": "Germany",
      "id": "XWtMdKtp2HAFy68kPZLa",
      "createdAt": "2020-01-28T04:13:33.513Z"
    },
    {
      "longitude": 12.56738,
      "country": "IT",
      "name": "Italy",
      "id": "XdekMZcw1lJK2MWpBlNK",
      "createdAt": "2020-01-31T03:30:16.335Z",
      "latitude": 41.871941
    },
    {
      "longitude": 126.99778,
      "country": "KR",
      "name": "South Korea",
      "id": "Yw9uBekNlefXBcOCNMfP",
      "createdAt": "2020-01-26T14:36:30.713Z",
      "latitude": 37.568291
    },
    {
      "latitude": -30.000233,
      "longitude": 136.209152,
      "country": "AU",
      "name": "South Australia",
      "id": "a9p9pAOsjg1WAjPGc2a6",
      "createdAt": "2020-02-01T16:19:03.555Z"
    },
    {
      "id": "aTa8MiBjtH3iY0SRs2HQ",
      "createdAt": "2020-01-24T10:02:03.143Z",
      "latitude": 23.64407,
      "longitude": 108.26651,
      "country": "CN",
      "name": "Guangxi"
    },
    {
      "longitude": 116.407394,
      "country": "CN",
      "name": "Beijing",
      "id": "alj4hkxg9cjrTxOzwFKt",
      "createdAt": "2020-01-25T10:02:03.143Z",
      "latitude": 39.904202
    },
    {
      "longitude": 43.679291,
      "country": "IQ",
      "name": "Iraq",
      "id": "b7TwXX46FA0EmH1CjHET",
      "createdAt": "2020-02-24T11:55:01.627Z",
      "latitude": 33.22319
    },
    {
      "longitude": 101.6869,
      "country": "MY",
      "name": "Malaysia",
      "id": "bdqD4kpdqGgUaX70Tm2Q",
      "createdAt": "2020-01-29T00:29:58.550Z",
      "latitude": 3.139
    },
    {
      "latitude": 60.128162,
      "longitude": 18.643501,
      "country": "SE",
      "name": "Sweden",
      "id": "bignnyt2A8BBx8VNo32p",
      "createdAt": "2020-01-31T18:50:41.331Z"
    },
    {
      "latitude": 64.963051,
      "longitude": -19.020836,
      "country": "IS",
      "name": "Iceland",
      "id": "cPxe7nsRnOf6aOPqHElJ",
      "createdAt": "2020-02-29T15:27:17.403Z"
    },
    {
      "id": "cX891t0ONLNFj0MYq6La",
      "createdAt": "2020-02-22T03:56:50.921Z",
      "latitude": 31.046051,
      "longitude": 34.851612,
      "country": "IL",
      "name": "Israel"
    },
    {
      "latitude": 40.463669,
      "longitude": -3.74922,
      "country": "ES",
      "name": "Spain",
      "id": "d0ExINgPaWUBm3l4ioJL",
      "createdAt": "2020-02-01T02:51:25.242Z"
    },
    {
      "longitude": 14.550072,
      "country": "AT",
      "name": "Austria",
      "id": "e3BtI12qbqhE8jypOoZu",
      "createdAt": "2020-02-26T02:16:23.409Z",
      "latitude": 47.516232
    },
    {
      "latitude": 41.097481,
      "longitude": 122.310669,
      "country": "CN",
      "name": "Liaoning",
      "id": "e7P83iImanpd9r36oXK3",
      "createdAt": "2020-01-25T14:24:12.448Z"
    },
    {
      "latitude": 31.230391,
      "longitude": 121.473701,
      "country": "CN",
      "name": "Shanghai",
      "id": "e9pQqQa7CEblCYoDtfKo",
      "createdAt": "2020-01-24T10:02:03.143Z"
    },
    {
      "id": "eCKDGssww4pF7NrxOySu",
      "createdAt": "2020-02-02T06:11:09.992Z",
      "latitude": 42.360081,
      "longitude": -71.058884,
      "country": "US",
      "name": "Boston, MA"
    },
    {
      "longitude": 7.432032,
      "country": "MC",
      "name": "Monaco",
      "id": "eLgKPNUwYM5MNDAtF6ql",
      "createdAt": "2020-02-29T15:32:46.267Z",
      "latitude": 43.740451
    },
    {
      "id": "eyK5bxFkwdoAouIBvLFM",
      "createdAt": "2020-01-24T10:02:03.143Z",
      "latitude": 30.14208,
      "longitude": 102.960701,
      "country": "CN",
      "name": "Sichuan"
    },
    {
      "latitude": 21.473534,
      "longitude": 55.975414,
      "country": "OM",
      "name": "Oman",
      "id": "f9kmlhYtc3WA3kjbWszW",
      "createdAt": "2020-02-26T02:19:37.706Z"
    },
    {
      "latitude": 35.452016,
      "longitude": 139.664285,
      "country": "JP",
      "name": "Yokahama Port (Cruise)",
      "id": "fNnE9CD0SttEVrCUo1Ym",
      "createdAt": "2020-02-09T06:16:12.654Z"
    },
    {
      "latitude": 31.160629,
      "longitude": 112.255402,
      "country": "CN",
      "name": "Hubei",
      "id": "fiJ14DCxw15e3SMemh8R",
      "createdAt": "2020-01-20T10:02:03.143Z"
    },
    {
      "id": "g0lRMtEJbucWIGqSPn0I",
      "createdAt": "2020-02-28T03:07:05.459Z",
      "latitude": 52.132633,
      "longitude": 5.291266,
      "country": "NL",
      "name": "Netherlands"
    },
    {
      "longitude": -81.247528,
      "country": "CA",
      "name": "London, ON",
      "id": "g93vYzplUjSlZyA1PNCo",
      "createdAt": "2020-02-04T01:10:43.805Z",
      "latitude": 42.984268
    },
    {
      "latitude": 35.751835,
      "longitude": 104.28611,
      "country": "CN",
      "name": "Gansu",
      "id": "iGkTscdD0XyHFSP23Qrp",
      "createdAt": "2020-01-24T14:31:42.510Z"
    },
    {
      "id": "jMlHjIOb7eMPSxFBrmG1",
      "createdAt": "2020-01-25T14:29:40.295Z",
      "latitude": 39.343357,
      "longitude": 117.361649,
      "country": "CN",
      "name": "Tianjin"
    },
    {
      "latitude": 53.3498,
      "longitude": -6.2603,
      "country": "IE",
      "name": "Ireland",
      "id": "jpVXEDCyfyq26gPoCtHL",
      "createdAt": "2020-02-29T15:36:50.283Z"
    },
    {
      "latitude": 42.524635,
      "longitude": 87.539589,
      "country": "CN",
      "name": "Xinjiang",
      "id": "lhPjpn6CzqTRDN0RW8uE",
      "createdAt": "2020-01-26T14:35:25.297Z"
    },
    {
      "longitude": -121.3542,
      "country": "US",
      "name": "Sacramento County, CA",
      "id": "lttI3X3Jk2hd5f6zhIcL",
      "createdAt": "2020-02-22T03:44:48.734Z",
      "latitude": 38.4747
    },
    {
      "longitude": -117.136489,
      "country": "US",
      "name": "San Diego County, CA",
      "id": "lzqBStWQPkPIcDqa4tcZ",
      "createdAt": "2020-02-11T09:25:22.307Z",
      "latitude": 32.713385
    },
    {
      "longitude": -122.077469,
      "country": "US",
      "name": "Snohomish County",
      "id": "ohYW8T32676xWDfKDZwh",
      "createdAt": "2020-03-01T04:47:36.070Z",
      "latitude": 48.035839
    },
    {
      "latitude": -20.917574,
      "longitude": 142.702789,
      "country": "AU",
      "name": "Queensland",
      "id": "oxz2l1rJipCsfMfy8Mmk",
      "createdAt": "2020-01-30T05:50:03.008Z"
    },
    {
      "latitude": 47.121647,
      "longitude": 128.738235,
      "country": "CN",
      "name": "Heilongjiang",
      "id": "p1aZboN4BtRJe7hPl8cw",
      "createdAt": "2020-01-25T14:28:37.600Z"
    },
    {
      "id": "pFhBwPnGGpQ6DLppJ6YS",
      "createdAt": "2020-01-20T10:02:03.143Z",
      "latitude": 32.026379,
      "longitude": 117.252747,
      "country": "CN",
      "name": "Anhui"
    },
    {
      "latitude": -26.190439,
      "longitude": 123.325947,
      "country": "AU",
      "name": "Western Australia",
      "id": "qnQ0dkxAxnDP01YpdZgk",
      "createdAt": "2020-02-29T15:47:27.435Z"
    },
    {
      "id": "qpAxVz0garcS0gNZxtOw",
      "createdAt": "2020-02-04T13:01:59.728Z",
      "latitude": 50.503887,
      "longitude": 4.469936,
      "country": "BE",
      "name": "Belgium"
    },
    {
      "latitude": 29.424122,
      "longitude": -98.493629,
      "country": "US",
      "name": "San Antonio, TX",
      "id": "qsrWiq0qCmIG66hpWojP",
      "createdAt": "2020-02-14T15:22:51.202Z"
    },
    {
      "id": "rKnSEyG03ak4YmGzonlg",
      "createdAt": "2020-01-26T14:39:26.900Z",
      "latitude": 14.058324,
      "longitude": 108.277199,
      "country": "VN",
      "name": "Vietnam"
    },
    {
      "latitude": 29.159849,
      "longitude": 120.326447,
      "country": "CN",
      "name": "Zhejiang",
      "id": "rgBVJ4hPofqjjchnroiY",
      "createdAt": "2020-01-24T10:02:03.143Z"
    },
    {
      "longitude": 8.468946,
      "country": "NO",
      "name": "Norway",
      "id": "rxSafpWsyKhfkV0HTtb4",
      "createdAt": "2020-02-27T01:08:29.595Z",
      "latitude": 60.472023
    },
    {
      "longitude": 109.949684,
      "country": "CN",
      "name": "Hainan",
      "id": "sKNhMvgXeyivpNFg02RA",
      "createdAt": "2020-01-25T14:08:47.479Z",
      "latitude": 19.566395
    },
    {
      "latitude": 37.89566,
      "longitude": 114.904221,
      "country": "CN",
      "name": "Hebei",
      "id": "sgsBhTwHxF1VVnqXbXXp",
      "createdAt": "2020-01-25T14:30:07.793Z"
    },
    {
      "id": "sjW9OwjFqrOvjVHRXWoR",
      "createdAt": "2020-02-27T01:09:42.732Z",
      "latitude": 42.3154,
      "longitude": 43.3569,
      "country": "GE",
      "name": "Georgia"
    },
    {
      "longitude": 103.691656,
      "country": "CN",
      "name": "Undisclosed Location in China",
      "id": "tDOzU6efZ6waH5v8MMa4",
      "createdAt": "2020-02-03T02:28:35.648Z",
      "latitude": 34.722443
    },
    {
      "longitude": 111.510681,
      "country": "CN",
      "name": "Hunan",
      "id": "tdNRDDrgvBQqqwzdFGh4",
      "createdAt": "2020-01-20T10:02:03.143Z",
      "latitude": 27.3818
    },
    {
      "longitude": 107.290283,
      "country": "CN",
      "name": "Guizhou",
      "id": "tyY4QSHWG9sXqSO9jm0Y",
      "createdAt": "2020-01-26T14:33:41.495Z",
      "latitude": 26.842964
    },
    {
      "latitude": 32.93708,
      "longitude": 119.151932,
      "country": "CN",
      "name": "Jiangsu",
      "id": "uvxN28EpGmRq3K9REtBP",
      "createdAt": "2020-01-26T14:05:49.606Z"
    },
    {
      "latitude": 26.820553,
      "longitude": 30.802498,
      "country": "EG",
      "name": "Egypt",
      "id": "v8JcH4FHH7BDpJlNNHjv",
      "createdAt": "2020-02-15T00:26:28.345Z"
    },
    {
      "latitude": 32.42791,
      "longitude": 53.688046,
      "country": "IR",
      "name": "Iran",
      "id": "vkkXVaqUswO5JsMZx0mX",
      "createdAt": "2020-02-20T01:50:11.050Z"
    },
    {
      "latitude": 34.08267,
      "longitude": 35.918113,
      "country": "LB",
      "name": "Lebanon",
      "id": "xFgM48q8JxVPfvQLQDNb",
      "createdAt": "2020-02-22T03:46:16.508Z"
    },
    {
      "latitude": 9.081999,
      "longitude": 8.675277,
      "country": "NG",
      "name": "Nigeria",
      "id": "xHWPTTpNHEwWv6MqfxP5",
      "createdAt": "2020-02-28T03:07:49.315Z"
    },
    {
      "latitude": 40.745,
      "longitude": -123.8695,
      "country": "US",
      "name": "Humboldt County, CA",
      "id": "xJMqTE93rcN0QwjaWsET",
      "createdAt": "2020-02-21T15:54:21.143Z"
    },
    {
      "latitude": 43.073051,
      "longitude": -89.40123,
      "country": "US",
      "name": "Madison, WI",
      "id": "xSHgaJlyPxHFWB6hhyng",
      "createdAt": "2020-02-06T01:31:37.508Z"
    },
    {
      "longitude": 2.693317,
      "country": "FR",
      "name": "France",
      "id": "yXFfRqV9eQnNiCzS2k6w",
      "createdAt": "2020-01-29T08:01:55.882Z",
      "latitude": 46.565366
    },
    {
      "id": "zC03Urt1iJJb2Tf6p0jd",
      "createdAt": "2020-03-01T04:45:43.536Z",
      "latitude": -1.831239,
      "longitude": -78.183403,
      "country": "EC",
      "name": "Ecuador"
    },
    {
      "id": "zvdC0u72Bk5YKNaazZFZ",
      "createdAt": "2020-01-26T14:34:00.486Z",
      "latitude": 15.870032,
      "longitude": 100.992538,
      "country": "TH",
      "name": "Thailand"
    }
  ],
  "reports": [
    {
      "id": "Lt0EU5IHDo6xR0nb1BLC",
      "createdAt": "2020-03-02T02:36:55.007Z",
      "hide": false,
      "infected": 3,
      "placeId": "0m4aECS0Z2DGFEr8ldgI",
      "recovered": 0,
      "date": "2020-03-02T02:36:53.357Z",
      "dead": 0
    },
    {
      "date": "2020-03-02T03:11:19.669Z",
      "dead": 1,
      "id": "MhUBLrp2Cx6ZXvJ3RK74",
      "createdAt": "2020-03-02T03:11:21.344Z",
      "hide": false,
      "infected": 245,
      "placeId": "0x2HLhr5z5xAtEdO4iZm",
      "recovered": 209
    },
    {
      "date": "2020-03-02T03:16:54.792Z",
      "dead": 0,
      "id": "7NEruTgdVD8eBC5ickUh",
      "createdAt": "2020-03-02T03:16:56.555Z",
      "hide": false,
      "infected": 1,
      "placeId": "19MvIhipqTyYv1H37Upw",
      "recovered": 0
    },
    {
      "id": "cSzez5s1nduaxEHXy17L",
      "createdAt": "2020-03-02T03:15:23.771Z",
      "hide": false,
      "infected": 18,
      "placeId": "1Fap7rZu9SIRqf5TG9Dg",
      "recovered": 18,
      "date": "2020-03-02T03:15:21.993Z",
      "dead": 0
    },
    {
      "date": "2020-03-02T03:26:23.108Z",
      "dead": 0,
      "id": "Fq66542efq7JnHV7TSy6",
      "createdAt": "2020-03-02T03:26:25.003Z",
      "hide": false,
      "infected": 2,
      "placeId": "1f0YoV0vAcexEhpESyZc",
      "recovered": 0
    },
    {
      "date": "2020-03-02T03:02:15.859Z",
      "dead": 0,
      "id": "1O7TCgIThJ12MVCpz98Z",
      "createdAt": "2020-03-02T03:02:17.527Z",
      "hide": false,
      "infected": 1,
      "placeId": "25qIBtsW2nfQj3pwBKg9",
      "recovered": 1
    },
    {
      "hide": false,
      "infected": 1,
      "placeId": "2OrsssmGUs4XCzaZzvTv",
      "recovered": 0,
      "date": "2020-03-02T03:06:49.109Z",
      "dead": 0,
      "id": "mzC2VaI0PXce7FYzWm6p",
      "createdAt": "2020-03-02T03:06:50.765Z"
    },
    {
      "id": "QNGZSwCOJ8Mp5kVG98Yb",
      "createdAt": "2020-03-02T03:19:48.851Z",
      "hide": false,
      "infected": 93,
      "placeId": "2jxHvSsxdnom0nPNvOT8",
      "recovered": 78,
      "date": "2020-03-02T03:19:47.041Z",
      "dead": 1
    },
    {
      "date": "2020-03-02T03:26:13.112Z",
      "dead": 0,
      "id": "2HCLG7L6EEdWazCuJooE",
      "createdAt": "2020-03-02T03:26:15.034Z",
      "hide": false,
      "infected": 8,
      "placeId": "4hfZRUoUgI4a3vrG0GBk",
      "recovered": 3
    },
    {
      "id": "rLQ3eOwi1KAmJf5rLryx",
      "createdAt": "2020-03-02T03:08:55.238Z",
      "hide": false,
      "infected": 3,
      "placeId": "4zqzRm2xHn0CDVOUQJ8p",
      "recovered": 0,
      "date": "2020-03-02T03:08:53.515Z",
      "dead": 0
    },
    {
      "date": "2020-03-02T03:17:31.248Z",
      "dead": 0,
      "id": "64mZMnr1D0GX8J6rbWxr",
      "createdAt": "2020-03-02T03:17:32.970Z",
      "hide": false,
      "infected": 6,
      "placeId": "5N16a2OXXRpsEFanw0TC",
      "recovered": 4
    },
    {
      "hide": false,
      "infected": 1,
      "placeId": "5dWKyF370Ds0uenLz4Z5",
      "recovered": 0,
      "date": "2020-03-02T03:18:38.718Z",
      "dead": 0,
      "id": "22vSOIw5lp4SCWxexLR9",
      "createdAt": "2020-03-02T03:18:40.461Z"
    },
    {
      "id": "iV7dUMUTF5DMNLBLO63A",
      "createdAt": "2020-03-02T03:17:48.567Z",
      "hide": false,
      "infected": 1,
      "placeId": "5gXZIjRgAvd6xWN1LOv8",
      "recovered": 1,
      "date": "2020-03-02T03:17:46.793Z",
      "dead": 0
    },
    {
      "date": "2020-03-02T03:15:34.268Z",
      "dead": 1,
      "id": "80HHPl4AHD7G7e9WQylu",
      "createdAt": "2020-03-02T03:15:35.977Z",
      "hide": false,
      "infected": 3,
      "placeId": "5pwmh7aSdGRKqRbnuyc0",
      "recovered": 2
    },
    {
      "id": "rTRo8UjYcUNIkPqgpG8f",
      "createdAt": "2020-03-02T03:19:07.673Z",
      "hide": false,
      "infected": 1,
      "placeId": "694ON7d0mRJDeM1gHBTR",
      "recovered": 0,
      "date": "2020-03-02T03:19:05.878Z",
      "dead": 0
    },
    {
      "hide": false,
      "infected": 100,
      "placeId": "6IcHIIH0zXpY0POmBZTv",
      "recovered": 36,
      "date": "2020-03-02T03:21:18.889Z",
      "dead": 2,
      "id": "1OkOjKivpIjVbcNaEJut",
      "createdAt": "2020-03-02T03:21:20.686Z"
    },
    {
      "date": "2020-03-02T02:46:10.543Z",
      "dead": 0,
      "id": "lNXNLWMZaoNT0WG6A4NA",
      "createdAt": "2020-03-02T02:46:12.164Z",
      "hide": false,
      "infected": 106,
      "placeId": "8pA3fM4xC2c2wv1b4TnE",
      "recovered": 74
    },
    {
      "id": "AEbJOQGwEWeqFq5XUFce",
      "createdAt": "2020-03-02T03:14:26.603Z",
      "hide": false,
      "infected": 3,
      "placeId": "9QcETqEcM2fTv9zRvx5T",
      "recovered": 1,
      "date": "2020-03-02T03:14:24.842Z",
      "dead": 0
    },
    {
      "date": "2020-03-02T02:55:31.564Z",
      "dead": 0,
      "id": "Tcv1QSmCJl5BhhorxYTD",
      "createdAt": "2020-03-02T02:55:33.232Z",
      "hide": false,
      "infected": 6,
      "placeId": "9p6OCdZbUUwBLA60Gk3W",
      "recovered": 1
    },
    {
      "date": "2020-03-02T03:20:04.677Z",
      "dead": 1,
      "id": "ikACyGOR9pUrKDF2johi",
      "createdAt": "2020-03-02T03:20:06.455Z",
      "hide": false,
      "infected": 935,
      "placeId": "AmBYm5J6E9Cuez1FQjiN",
      "recovered": 850
    },
    {
      "date": "2020-03-02T03:28:06.291Z",
      "dead": 0,
      "id": "ed4lJxwrLy1aUhURijGf",
      "createdAt": "2020-03-02T03:28:08.111Z",
      "hide": false,
      "infected": 3,
      "placeId": "AwN0CScPDApcLFgz6e3z",
      "recovered": 0
    },
    {
      "hide": false,
      "infected": 3,
      "placeId": "B05tcRxZlMUSyed5WcAA",
      "recovered": 3,
      "date": "2020-03-02T03:19:31.432Z",
      "dead": 0,
      "id": "Acc6zrEps4D1Ggc3USEV",
      "createdAt": "2020-03-02T03:19:33.219Z"
    },
    {
      "hide": false,
      "infected": 7,
      "placeId": "B82Ef45M8cDu4q7VsSHF",
      "recovered": 0,
      "date": "2020-03-02T03:25:08.809Z",
      "dead": 0,
      "id": "BkzFy787KyCoHgSSsaJo",
      "createdAt": "2020-03-02T03:25:10.703Z"
    },
    {
      "date": "2020-03-01T04:24:08.537Z",
      "dead": 0,
      "id": "QlJV2PZP8SO7HGlyllzm",
      "createdAt": "2020-03-01T04:24:08.164Z",
      "hide": false,
      "infected": 44,
      "placeId": "BCFAwm0wjOZlbPfnttGd",
      "recovered": 0
    },
    {
      "date": "2020-03-02T03:08:28.318Z",
      "dead": 0,
      "id": "KE9ECw6EjQq0Ila9FYRy",
      "createdAt": "2020-03-02T03:08:30.102Z",
      "hide": false,
      "infected": 1,
      "placeId": "BGg6yVU5VP71B8NXU0oh",
      "recovered": 0
    },
    {
      "date": "2020-03-02T03:03:02.126Z",
      "dead": 0,
      "id": "i3EsDv6ZXD9GvWpSZQDo",
      "createdAt": "2020-03-02T03:03:03.834Z",
      "hide": false,
      "infected": 1,
      "placeId": "BTEESCuD2ZbS1afunR2A",
      "recovered": 1
    },
    {
      "date": "2020-03-02T02:34:52.457Z",
      "dead": 0,
      "id": "VU4Au9BGmYMxOnxEIXrd",
      "createdAt": "2020-03-02T02:34:54.129Z",
      "hide": false,
      "infected": 3,
      "placeId": "C6S76AggdWVU8G22jFHQ",
      "recovered": 0
    },
    {
      "id": "DgeTEhzLtv12wVIosbwk",
      "createdAt": "2020-03-02T03:27:20.929Z",
      "hide": false,
      "infected": 47,
      "placeId": "C7cj4nwRITs13KnaJrQ2",
      "recovered": 0,
      "date": "2020-03-02T03:27:19.087Z",
      "dead": 0
    },
    {
      "date": "2020-03-02T02:43:26.271Z",
      "dead": 0,
      "id": "BafEV0W9VLe11oFL083l",
      "createdAt": "2020-03-02T02:43:27.895Z",
      "hide": false,
      "infected": 36,
      "placeId": "CrXu6i5Sqx11iwdfHfBs",
      "recovered": 8
    },
    {
      "date": "2020-03-02T02:35:04.160Z",
      "dead": 0,
      "id": "hPnkwBiGi2rZhiUagOXA",
      "createdAt": "2020-03-02T02:35:05.864Z",
      "hide": false,
      "infected": 1,
      "placeId": "DCJCtZoBTWQ4mzdDNljD",
      "recovered": 0
    },
    {
      "date": "2020-03-02T03:18:20.010Z",
      "dead": 0,
      "id": "olAdyxM2zZRnYulcpVqT",
      "createdAt": "2020-03-02T03:18:21.763Z",
      "hide": false,
      "infected": 10,
      "placeId": "DdBt8qsG6A3g92oOR3ow",
      "recovered": 8
    },
    {
      "hide": false,
      "infected": 7,
      "placeId": "Dtr1lap1RpJpXJdXGJiW",
      "recovered": 0,
      "date": "2020-03-02T03:22:57.713Z",
      "dead": 0,
      "id": "6L8GOnzIVmLa4ZHqG5Rm",
      "createdAt": "2020-03-02T03:22:59.579Z"
    },
    {
      "date": "2020-03-02T02:44:31.182Z",
      "dead": 1,
      "id": "fu8HhfxEadRGWjf1rzvc",
      "createdAt": "2020-03-02T02:44:32.789Z",
      "hide": false,
      "infected": 40,
      "placeId": "EKTfs8e7M6DXzI1HqyyX",
      "recovered": 12
    },
    {
      "id": "UPmSvYdL3xBoXnLj93bF",
      "createdAt": "2020-03-02T03:28:23.743Z",
      "hide": false,
      "infected": 1,
      "placeId": "FCDmlmnIIswd8bQiUjfN",
      "recovered": 0,
      "date": "2020-03-02T03:28:21.847Z",
      "dead": 0
    },
    {
      "date": "2020-03-02T03:25:27.477Z",
      "dead": 6,
      "id": "O8w2EJEX33xxJeuR26cd",
      "createdAt": "2020-03-02T03:25:29.353Z",
      "hide": false,
      "infected": 576,
      "placeId": "FErOU1m4Tj7jIkRam3vF",
      "recovered": 450
    },
    {
      "date": "2020-03-02T02:50:41.163Z",
      "dead": 0,
      "id": "9Od8Ht2cmPWs2Kmjibnv",
      "createdAt": "2020-03-02T02:50:42.776Z",
      "hide": false,
      "infected": 46,
      "placeId": "FZsUkhxBEgqsPb4eO0PN",
      "recovered": 0
    },
    {
      "date": "2020-03-02T02:34:37.163Z",
      "dead": 0,
      "id": "wzzYlZVCWGOlauNwNVsa",
      "createdAt": "2020-03-02T02:34:38.864Z",
      "hide": false,
      "infected": 1,
      "placeId": "FuiVEJvWb0QMCpxJ3563",
      "recovered": 0
    },
    {
      "date": "2020-03-02T03:16:00.854Z",
      "dead": 0,
      "id": "KshkW2EwsUPbWm9N6oR4",
      "createdAt": "2020-03-02T03:16:02.527Z",
      "hide": false,
      "infected": 4,
      "placeId": "GAp7Wb6IMhdgbvEtMza9",
      "recovered": 0
    },
    {
      "date": "2020-03-02T03:01:38.477Z",
      "dead": 0,
      "id": "6cmg7Ypos1JAnx7iYlos",
      "createdAt": "2020-03-02T03:01:40.095Z",
      "hide": false,
      "infected": 21,
      "placeId": "GHzBIsHy2GiBc5JV2HMs",
      "recovered": 5
    },
    {
      "date": "2020-03-02T03:11:43.128Z",
      "dead": 0,
      "id": "BqjQ59MJtVnRF1cRWniO",
      "createdAt": "2020-03-02T03:11:44.853Z",
      "hide": false,
      "infected": 6,
      "placeId": "Gh46r6vuaY7fbGt3IboN",
      "recovered": 1
    },
    {
      "date": "2020-03-02T03:16:13.990Z",
      "dead": 0,
      "id": "FLScYd5k15MKnspzq3T0",
      "createdAt": "2020-03-02T03:16:15.765Z",
      "hide": false,
      "infected": 1,
      "placeId": "GyRw3erENO83NSxsZ1Iw",
      "recovered": 0
    },
    {
      "id": "JfJpTlGznfpRM8BINdMg",
      "createdAt": "2020-03-02T03:20:23.315Z",
      "hide": false,
      "infected": 75,
      "placeId": "H3JeVigVbo5CSYfZG4WI",
      "recovered": 52,
      "date": "2020-03-02T03:20:21.532Z",
      "dead": 0
    },
    {
      "date": "2020-03-02T03:07:50.497Z",
      "dead": 0,
      "id": "ARiGxjKuXWqVk6e0iUET",
      "createdAt": "2020-03-02T03:07:52.034Z",
      "hide": false,
      "infected": 5,
      "placeId": "I4OJ6z9Vjs1byOcbsJrd",
      "recovered": 0
    },
    {
      "id": "ToPz35reyelMXppfMrMs",
      "createdAt": "2020-03-02T02:54:00.418Z",
      "hide": false,
      "infected": 1350,
      "placeId": "IAX0OQLVnUwU7FX0ENF1",
      "recovered": 1034,
      "date": "2020-03-02T02:53:58.713Z",
      "dead": 7
    },
    {
      "id": "NMC0L7WZXpzrsN6mQthU",
      "createdAt": "2020-03-02T02:53:43.777Z",
      "hide": false,
      "infected": 1272,
      "placeId": "IFuMrMvSjoiX5agYvllh",
      "recovered": 1205,
      "date": "2020-03-02T02:53:42.085Z",
      "dead": 22
    },
    {
      "id": "L4xuRJAqB9CTEYmEgqMx",
      "createdAt": "2020-03-02T02:58:54.607Z",
      "hide": false,
      "infected": 13,
      "placeId": "IaIoFRxP77clckBXWQyl",
      "recovered": 1,
      "date": "2020-03-02T02:58:53.084Z",
      "dead": 2
    },
    {
      "date": "2020-03-02T03:07:18.424Z",
      "dead": 0,
      "id": "ekruTBrinalsAIbg29Xh",
      "createdAt": "2020-03-02T03:07:20.156Z",
      "hide": false,
      "infected": 1,
      "placeId": "IvVhpOoGpH6JVkGyUhXN",
      "recovered": 0
    },
    {
      "date": "2020-03-02T03:04:27.862Z",
      "dead": 0,
      "id": "bo8CYHIdXFPvLUUzExYU",
      "createdAt": "2020-03-02T03:04:29.565Z",
      "hide": false,
      "infected": 1,
      "placeId": "KsWzJO06cf0d6LJ4ZNh9",
      "recovered": 1
    },
    {
      "date": "2020-03-02T03:13:38.860Z",
      "dead": 0,
      "id": "AOcV4Pgreu3O5I1E0SHf",
      "createdAt": "2020-03-02T03:13:40.599Z",
      "hide": false,
      "infected": 2,
      "placeId": "KwOuGBKSMRlmwftxAvLX",
      "recovered": 2
    },
    {
      "hide": false,
      "infected": 2,
      "placeId": "LMZDH0M8KhjEgkOoUUOt",
      "recovered": 1,
      "date": "2020-03-02T03:12:49.577Z",
      "dead": 0,
      "id": "iAQljtU1YdIPxA3tliQi",
      "createdAt": "2020-03-02T03:12:51.371Z"
    },
    {
      "date": "2020-03-02T03:17:14.721Z",
      "dead": 0,
      "id": "LUngD0x2pk3AyhmIjK8K",
      "createdAt": "2020-03-02T03:17:16.531Z",
      "hide": false,
      "infected": 74,
      "placeId": "MntmjjuHljarCdt6aIeE",
      "recovered": 69
    },
    {
      "date": "2020-03-02T03:10:39.038Z",
      "dead": 0,
      "id": "XA5htFw62rwiz2ROt5ny",
      "createdAt": "2020-03-02T03:10:40.711Z",
      "hide": false,
      "infected": 133,
      "placeId": "NBRIGIRrJB1Ry8prDNAC",
      "recovered": 116
    },
    {
      "date": "2020-03-02T03:25:39.886Z",
      "dead": 0,
      "id": "upjAc7EK4qz7zHISBjuX",
      "createdAt": "2020-03-02T03:25:41.684Z",
      "hide": false,
      "infected": 3,
      "placeId": "PTwQr9ijo0TBBsPH2sdJ",
      "recovered": 2
    },
    {
      "id": "eHm23FtPi8mIk98wjxTW",
      "createdAt": "2020-03-02T03:01:10.661Z",
      "hide": false,
      "infected": 9,
      "placeId": "Q18mrGvFWTLX2BU9SqhQ",
      "recovered": 4,
      "date": "2020-03-02T03:01:08.941Z",
      "dead": 0
    },
    {
      "hide": false,
      "infected": 1,
      "placeId": "QR9go2hQKXjty7JHUYe4",
      "recovered": 0,
      "date": "2020-03-02T03:23:46.458Z",
      "dead": 0,
      "id": "HOkjNSpOsj4nOhlekIrS",
      "createdAt": "2020-03-02T03:23:48.268Z"
    },
    {
      "date": "2020-03-02T03:02:03.038Z",
      "dead": 0,
      "id": "FU9qQv0rEWxl7wRFsQWQ",
      "createdAt": "2020-03-02T03:02:04.740Z",
      "hide": false,
      "infected": 14,
      "placeId": "Rx4TuyMpfGb3S8wYJX0x",
      "recovered": 2
    },
    {
      "id": "nicgTTLbO7hDL1Hvh8zw",
      "createdAt": "2020-03-02T03:03:16.884Z",
      "hide": false,
      "infected": 24,
      "placeId": "SGe9sCPayMqh6RsGFaBA",
      "recovered": 0,
      "date": "2020-03-02T03:03:15.508Z",
      "dead": 0
    },
    {
      "date": "2020-03-02T03:07:28.152Z",
      "dead": 0,
      "id": "xmcMhoBaN0HZrvJ7syRG",
      "createdAt": "2020-03-02T03:07:29.867Z",
      "hide": false,
      "infected": 1,
      "placeId": "SHoOE3NiJgWAlDVBzwYH",
      "recovered": 0
    },
    {
      "hide": false,
      "infected": 1,
      "placeId": "SioMALgUbo7peXmbco2f",
      "recovered": 1,
      "date": "2020-03-02T03:25:52.031Z",
      "dead": 0,
      "id": "DLsFibNwLzmE5owm08Gn",
      "createdAt": "2020-03-02T03:25:53.960Z"
    },
    {
      "id": "UqV5QQmNmZThyjJPV1LY",
      "createdAt": "2020-03-02T03:24:49.416Z",
      "hide": false,
      "infected": 4,
      "placeId": "Ty1AY3VLPJcRZgdBIERx",
      "recovered": 0,
      "date": "2020-03-02T03:24:47.518Z",
      "dead": 0
    },
    {
      "hide": false,
      "infected": 758,
      "placeId": "U0tkTJ9CGsBuFJ2Gdoum",
      "recovered": 455,
      "date": "2020-03-02T02:46:37.086Z",
      "dead": 6,
      "id": "hIyvWk6bqB2uBfEWdiCq",
      "createdAt": "2020-03-02T02:46:38.676Z"
    },
    {
      "date": "2020-03-02T03:09:29.177Z",
      "dead": 1,
      "id": "DCFVOR57F1oAHnjD5F4E",
      "createdAt": "2020-03-02T03:09:30.948Z",
      "hide": false,
      "infected": 8,
      "placeId": "U12rMD5GDW58Q0lIwrB1",
      "recovered": 0
    },
    {
      "hide": false,
      "infected": 256,
      "placeId": "U13Gy4BpRLAZ95bPmBXd",
      "recovered": 32,
      "date": "2020-03-02T02:52:22.647Z",
      "dead": 6,
      "id": "5zXCxBtsxc7t7lALzAPs",
      "createdAt": "2020-03-02T02:52:24.172Z"
    },
    {
      "hide": false,
      "infected": 1,
      "placeId": "V9pw81ZdEmysV9UqJBum",
      "recovered": 0,
      "date": "2020-03-02T02:34:23.347Z",
      "dead": 0,
      "id": "wxzvhD2oPznLyCH3HPnF",
      "createdAt": "2020-03-02T02:34:24.893Z"
    },
    {
      "id": "DlTAlxe5dOmxUmsfNGtb",
      "createdAt": "2020-03-02T02:59:37.397Z",
      "hide": false,
      "infected": 174,
      "placeId": "VIf8T8PD3ZzlzAm5eBCX",
      "recovered": 163,
      "date": "2020-03-02T02:59:35.820Z",
      "dead": 2
    },
    {
      "id": "SzrA3smu2qpCTLH6IBfR",
      "createdAt": "2020-03-02T03:23:34.785Z",
      "hide": false,
      "infected": 296,
      "placeId": "XBBw0iMPrmiEu3qogkbi",
      "recovered": 247,
      "date": "2020-03-02T03:23:32.966Z",
      "dead": 1
    },
    {
      "date": "2020-03-02T02:54:19.865Z",
      "dead": 0,
      "id": "bE7MlEfV7HRBhz1NskC1",
      "createdAt": "2020-03-02T02:54:21.547Z",
      "hide": false,
      "infected": 130,
      "placeId": "XWtMdKtp2HAFy68kPZLa",
      "recovered": 16
    },
    {
      "date": "2020-03-02T02:42:28.394Z",
      "dead": 41,
      "id": "Tjs7wZwGm1MXeLrnNxRj",
      "createdAt": "2020-03-02T02:42:30.016Z",
      "hide": false,
      "infected": 1701,
      "placeId": "XdekMZcw1lJK2MWpBlNK",
      "recovered": 83
    },
    {
      "date": "2020-03-02T02:41:24.040Z",
      "dead": 22,
      "id": "Kn3o5zfejbJaXt6ZV9mB",
      "createdAt": "2020-03-02T02:41:25.686Z",
      "hide": false,
      "infected": 4212,
      "placeId": "Yw9uBekNlefXBcOCNMfP",
      "recovered": 30
    },
    {
      "date": "2020-03-02T03:04:39.341Z",
      "dead": 0,
      "id": "JTDKneAfWYnDjmdoonwP",
      "createdAt": "2020-03-02T03:04:41.056Z",
      "hide": false,
      "infected": 3,
      "placeId": "a9p9pAOsjg1WAjPGc2a6",
      "recovered": 2
    },
    {
      "date": "2020-03-02T03:22:33.599Z",
      "dead": 2,
      "id": "5Fcis6TGYJEyfgZsBAAu",
      "createdAt": "2020-03-02T03:22:35.426Z",
      "hide": false,
      "infected": 252,
      "placeId": "aTa8MiBjtH3iY0SRs2HQ",
      "recovered": 188
    },
    {
      "date": "2020-03-02T03:27:44.811Z",
      "dead": 8,
      "id": "BLC6aPoWHNm0JlDbWfg5",
      "createdAt": "2020-03-02T03:27:46.750Z",
      "hide": false,
      "infected": 414,
      "placeId": "alj4hkxg9cjrTxOzwFKt",
      "recovered": 282
    },
    {
      "id": "vs1vGLVlN6GLKyi9y8x5",
      "createdAt": "2020-03-02T03:28:56.075Z",
      "hide": false,
      "infected": 19,
      "placeId": "b7TwXX46FA0EmH1CjHET",
      "recovered": 0,
      "date": "2020-03-02T03:28:54.164Z",
      "dead": 0
    },
    {
      "date": "2020-03-02T02:49:34.206Z",
      "dead": 0,
      "id": "cqxgShOc3PkND6sWygN8",
      "createdAt": "2020-03-02T02:49:35.805Z",
      "hide": false,
      "infected": 29,
      "placeId": "bdqD4kpdqGgUaX70Tm2Q",
      "recovered": 22
    },
    {
      "id": "XboLvlXGDexn8cz4CtjJ",
      "createdAt": "2020-03-02T02:59:18.298Z",
      "hide": false,
      "infected": 14,
      "placeId": "bignnyt2A8BBx8VNo32p",
      "recovered": 0,
      "date": "2020-03-02T02:59:16.648Z",
      "dead": 0
    },
    {
      "hide": false,
      "infected": 3,
      "placeId": "cPxe7nsRnOf6aOPqHElJ",
      "recovered": 0,
      "date": "2020-03-02T03:08:07.864Z",
      "dead": 0,
      "id": "fbMSiUWFHNLbKKf9Kd9t",
      "createdAt": "2020-03-02T03:08:09.564Z"
    },
    {
      "id": "uLxs3cjodZqulR8jYZuB",
      "createdAt": "2020-03-02T03:29:29.781Z",
      "hide": false,
      "infected": 10,
      "placeId": "cX891t0ONLNFj0MYq6La",
      "recovered": 1,
      "date": "2020-03-02T03:29:27.845Z",
      "dead": 0
    },
    {
      "id": "AVCGXfcqXtPUrE8R7VHU",
      "createdAt": "2020-03-02T02:45:18.433Z",
      "hide": false,
      "infected": 84,
      "placeId": "d0ExINgPaWUBm3l4ioJL",
      "recovered": 2,
      "date": "2020-03-02T02:45:16.905Z",
      "dead": 0
    },
    {
      "id": "cZu0kqX7g6Us5XRVTWhd",
      "createdAt": "2020-03-02T02:57:52.317Z",
      "hide": false,
      "infected": 14,
      "placeId": "e3BtI12qbqhE8jypOoZu",
      "recovered": 0,
      "date": "2020-03-02T02:57:50.791Z",
      "dead": 0
    },
    {
      "id": "yeS98OqrKmomWPdMAVGE",
      "createdAt": "2020-03-02T03:19:20.232Z",
      "hide": false,
      "infected": 122,
      "placeId": "e7P83iImanpd9r36oXK3",
      "recovered": 103,
      "date": "2020-03-02T03:19:18.439Z",
      "dead": 1
    },
    {
      "date": "2020-03-02T03:10:56.325Z",
      "dead": 3,
      "id": "Ak5ZHcSV7LWQp7GX6xme",
      "createdAt": "2020-03-02T03:10:58.061Z",
      "hide": false,
      "infected": 337,
      "placeId": "e9pQqQa7CEblCYoDtfKo",
      "recovered": 290
    },
    {
      "date": "2020-03-02T03:26:51.039Z",
      "dead": 0,
      "id": "cUUde8PwLrVLs1mDsbYJ",
      "createdAt": "2020-03-02T03:26:52.987Z",
      "hide": false,
      "infected": 1,
      "placeId": "eCKDGssww4pF7NrxOySu",
      "recovered": 1
    },
    {
      "date": "2020-03-02T03:07:38.224Z",
      "dead": 0,
      "id": "D9qzkrZ3JQu3JTpflPi5",
      "createdAt": "2020-03-02T03:07:39.948Z",
      "hide": false,
      "infected": 1,
      "placeId": "eLgKPNUwYM5MNDAtF6ql",
      "recovered": 0
    },
    {
      "hide": false,
      "infected": 538,
      "placeId": "eyK5bxFkwdoAouIBvLFM",
      "recovered": 378,
      "date": "2020-03-02T03:04:57.822Z",
      "dead": 3,
      "id": "Onl2UyI5yJppjpLGRlB0",
      "createdAt": "2020-03-02T03:04:59.547Z"
    },
    {
      "hide": false,
      "infected": 6,
      "placeId": "f9kmlhYtc3WA3kjbWszW",
      "recovered": 1,
      "date": "2020-03-02T03:16:35.681Z",
      "dead": 0,
      "id": "Np26rP9ZO7AJap99KLHr",
      "createdAt": "2020-03-02T03:16:37.306Z"
    },
    {
      "hide": false,
      "infected": 705,
      "placeId": "fNnE9CD0SttEVrCUo1Ym",
      "recovered": 10,
      "date": "2020-03-02T03:00:08.948Z",
      "dead": 6,
      "id": "b3HGVSsJbSGf1DdVYfQd",
      "createdAt": "2020-03-02T03:00:10.274Z"
    },
    {
      "date": "2020-03-02T02:37:29.989Z",
      "dead": 2803,
      "id": "sLbKqE7OAIT5pujGXRV4",
      "createdAt": "2020-03-02T02:37:31.671Z",
      "hide": false,
      "infected": 67103,
      "placeId": "fiJ14DCxw15e3SMemh8R",
      "recovered": 33757
    },
    {
      "date": "2020-03-02T03:32:54.097Z",
      "dead": 0,
      "id": "0CQ0sI8FHZBers1ELlbS",
      "createdAt": "2020-03-02T03:32:55.766Z",
      "hide": false,
      "infected": 10,
      "placeId": "g0lRMtEJbucWIGqSPn0I",
      "recovered": 0
    },
    {
      "date": "2020-03-02T03:18:53.773Z",
      "dead": 0,
      "id": "5FxCqKe1pzEgPx0CC0qY",
      "createdAt": "2020-03-02T03:18:55.521Z",
      "hide": false,
      "infected": 1,
      "placeId": "g93vYzplUjSlZyA1PNCo",
      "recovered": 1
    },
    {
      "id": "vJQr3WaIx9Whzv2CeZlC",
      "createdAt": "2020-03-02T03:23:20.187Z",
      "hide": false,
      "infected": 91,
      "placeId": "iGkTscdD0XyHFSP23Qrp",
      "recovered": 84,
      "date": "2020-03-02T03:23:18.365Z",
      "dead": 2
    },
    {
      "date": "2020-03-02T03:02:31.250Z",
      "dead": 3,
      "id": "N7VUUQP9QQ4Hinta4JMr",
      "createdAt": "2020-03-02T03:02:33.002Z",
      "hide": false,
      "infected": 136,
      "placeId": "jMlHjIOb7eMPSxFBrmG1",
      "recovered": 111
    },
    {
      "id": "4xS0tpDHaOrmwGInZdHK",
      "createdAt": "2020-03-02T03:07:07.152Z",
      "hide": false,
      "infected": 1,
      "placeId": "jpVXEDCyfyq26gPoCtHL",
      "recovered": 0,
      "date": "2020-03-02T03:07:05.481Z",
      "dead": 0
    },
    {
      "date": "2020-03-02T03:00:32.605Z",
      "dead": 3,
      "id": "3eGG8OUseEz76Q0MtWtK",
      "createdAt": "2020-03-02T03:00:34.212Z",
      "hide": false,
      "infected": 76,
      "placeId": "lhPjpn6CzqTRDN0RW8uE",
      "recovered": 64
    },
    {
      "hide": false,
      "infected": 2,
      "placeId": "lttI3X3Jk2hd5f6zhIcL",
      "recovered": 0,
      "date": "2020-03-02T03:13:25.621Z",
      "dead": 0,
      "id": "PqAM9NbmDiDuZworE6Sa",
      "createdAt": "2020-03-02T03:13:27.438Z"
    },
    {
      "date": "2020-03-02T03:11:53.583Z",
      "dead": 0,
      "id": "08OA2viXmIWmahHmurnl",
      "createdAt": "2020-03-02T03:11:55.347Z",
      "hide": false,
      "infected": 2,
      "placeId": "lzqBStWQPkPIcDqa4tcZ",
      "recovered": 1
    },
    {
      "date": "2020-03-02T02:35:47.228Z",
      "dead": 0,
      "id": "XuarMouqJkUdWA3gENel",
      "createdAt": "2020-03-02T02:35:48.571Z",
      "hide": false,
      "infected": 2,
      "placeId": "ohYW8T32676xWDfKDZwh",
      "recovered": 0
    },
    {
      "date": "2020-03-02T03:14:49.557Z",
      "dead": 0,
      "id": "1Mzu3rVxalWto86yIgIv",
      "createdAt": "2020-03-02T03:14:51.266Z",
      "hide": false,
      "infected": 9,
      "placeId": "oxz2l1rJipCsfMfy8Mmk",
      "recovered": 2
    },
    {
      "hide": false,
      "infected": 480,
      "placeId": "p1aZboN4BtRJe7hPl8cw",
      "recovered": 350,
      "date": "2020-03-02T03:21:38.959Z",
      "dead": 13,
      "id": "uajdXuMBcdDgZG9QSZOH",
      "createdAt": "2020-03-02T03:21:40.750Z"
    },
    {
      "hide": false,
      "infected": 990,
      "placeId": "pFhBwPnGGpQ6DLppJ6YS",
      "recovered": 888,
      "date": "2020-03-02T02:58:21.145Z",
      "dead": 6,
      "id": "bKgF7CyOzKY7CTCPltYZ",
      "createdAt": "2020-03-02T02:58:22.579Z"
    },
    {
      "id": "vScEC1HtLwPRV5TUQbis",
      "createdAt": "2020-03-02T02:36:24.903Z",
      "hide": false,
      "infected": 2,
      "placeId": "qnQ0dkxAxnDP01YpdZgk",
      "recovered": 0,
      "date": "2020-03-02T02:36:23.338Z",
      "dead": 1
    },
    {
      "id": "uGhinaB1CP2xtEsAqu1h",
      "createdAt": "2020-03-02T02:56:34.256Z",
      "hide": false,
      "infected": 2,
      "placeId": "qpAxVz0garcS0gNZxtOw",
      "recovered": 1,
      "date": "2020-03-02T02:56:32.702Z",
      "dead": 0
    },
    {
      "id": "ypAS47ZFW0Kp5VPuHiOR",
      "createdAt": "2020-03-02T03:13:11.295Z",
      "hide": false,
      "infected": 1,
      "placeId": "qsrWiq0qCmIG66hpWojP",
      "recovered": 0,
      "date": "2020-03-02T03:13:09.550Z",
      "dead": 0
    },
    {
      "hide": false,
      "infected": 16,
      "placeId": "rKnSEyG03ak4YmGzonlg",
      "recovered": 16,
      "date": "2020-03-02T03:00:52.423Z",
      "dead": 0,
      "id": "C5k2PHVriTpblmzKL3WY",
      "createdAt": "2020-03-02T03:00:54.168Z"
    },
    {
      "date": "2020-03-02T02:39:29.138Z",
      "dead": 1,
      "id": "ylSXC0GH16x3nSk3IMbR",
      "createdAt": "2020-03-02T02:39:30.776Z",
      "hide": false,
      "infected": 1206,
      "placeId": "rgBVJ4hPofqjjchnroiY",
      "recovered": 1050
    },
    {
      "date": "2020-03-02T02:46:56.060Z",
      "dead": 0,
      "id": "KINgi7Fct8iuX7mASd2i",
      "createdAt": "2020-03-02T02:46:57.653Z",
      "hide": false,
      "infected": 19,
      "placeId": "rxSafpWsyKhfkV0HTtb4",
      "recovered": 0
    },
    {
      "hide": false,
      "infected": 168,
      "placeId": "sKNhMvgXeyivpNFg02RA",
      "recovered": 151,
      "date": "2020-03-02T03:22:08.441Z",
      "dead": 5,
      "id": "XKrUl2msvlvxkak0Em3e",
      "createdAt": "2020-03-02T03:22:10.253Z"
    },
    {
      "date": "2020-03-02T03:21:54.151Z",
      "dead": 6,
      "id": "wVPOw7AFCGja4UMFNvST",
      "createdAt": "2020-03-02T03:21:55.972Z",
      "hide": false,
      "infected": 318,
      "placeId": "sgsBhTwHxF1VVnqXbXXp",
      "recovered": 294
    },
    {
      "date": "2020-03-02T03:28:31.631Z",
      "dead": 0,
      "id": "KjWUAGjtTqC77OcWDm30",
      "createdAt": "2020-03-02T03:28:33.565Z",
      "hide": false,
      "infected": 3,
      "placeId": "sjW9OwjFqrOvjVHRXWoR",
      "recovered": 0
    },
    {
      "id": "cisyFk2UrTpiZuvCCOxU",
      "createdAt": "2020-02-17T12:55:27.401Z",
      "hide": false,
      "infected": 0,
      "placeId": "tDOzU6efZ6waH5v8MMa4",
      "date": "2020-02-17T12:55:27.401Z"
    },
    {
      "date": "2020-03-02T02:53:23.544Z",
      "dead": 4,
      "id": "kj91RvaxFs313ZyOL64u",
      "createdAt": "2020-03-02T02:53:25.167Z",
      "hide": false,
      "infected": 1018,
      "placeId": "tdNRDDrgvBQqqwzdFGh4",
      "recovered": 876
    },
    {
      "date": "2020-03-02T03:22:21.669Z",
      "dead": 2,
      "id": "fxwpiVxHFNTunL3pbIgC",
      "createdAt": "2020-03-02T03:22:23.490Z",
      "hide": false,
      "infected": 146,
      "placeId": "tyY4QSHWG9sXqSO9jm0Y",
      "recovered": 114
    },
    {
      "date": "2020-03-02T02:51:30.616Z",
      "dead": 0,
      "id": "f9J3bGEA95alG0JrAwsF",
      "createdAt": "2020-03-02T02:51:32.272Z",
      "hide": false,
      "infected": 631,
      "placeId": "uvxN28EpGmRq3K9REtBP",
      "recovered": 536
    },
    {
      "date": "2020-03-02T03:24:16.395Z",
      "dead": 0,
      "id": "gi4RCX3XgMdzJ4igZ8eI",
      "createdAt": "2020-03-02T03:24:18.298Z",
      "hide": false,
      "infected": 2,
      "placeId": "v8JcH4FHH7BDpJlNNHjv",
      "recovered": 1
    },
    {
      "hide": false,
      "infected": 978,
      "placeId": "vkkXVaqUswO5JsMZx0mX",
      "recovered": 175,
      "date": "2020-03-02T02:52:55.544Z",
      "dead": 54,
      "id": "JYLX649PE0N18hGfLr9L",
      "createdAt": "2020-03-02T02:52:57.186Z"
    },
    {
      "date": "2020-03-02T02:50:08.551Z",
      "dead": 0,
      "id": "uAqlkOVzUa8nmpeEU2mG",
      "createdAt": "2020-03-02T02:50:10.195Z",
      "hide": false,
      "infected": 10,
      "placeId": "xFgM48q8JxVPfvQLQDNb",
      "recovered": 0
    },
    {
      "date": "2020-03-02T03:10:02.212Z",
      "dead": 0,
      "id": "N0Y9n5moY8HjZXc8RMfE",
      "createdAt": "2020-03-02T03:10:03.968Z",
      "hide": false,
      "infected": 1,
      "placeId": "xHWPTTpNHEwWv6MqfxP5",
      "recovered": 0
    },
    {
      "date": "2020-03-02T03:20:33.624Z",
      "dead": 0,
      "id": "4W2ubcYzm0ebhCxZt3JQ",
      "createdAt": "2020-03-02T03:20:35.413Z",
      "hide": false,
      "infected": 1,
      "placeId": "xJMqTE93rcN0QwjaWsET",
      "recovered": 0
    },
    {
      "date": "2020-03-02T03:18:00.940Z",
      "dead": 0,
      "id": "B1yan2kG5szSKy4ytP0Y",
      "createdAt": "2020-03-02T03:18:02.639Z",
      "hide": false,
      "infected": 1,
      "placeId": "xSHgaJlyPxHFWB6hhyng",
      "recovered": 0
    },
    {
      "date": "2020-03-02T02:54:44.483Z",
      "dead": 2,
      "id": "2ePxWZEt5mi6i91nhqY5",
      "createdAt": "2020-03-02T02:54:46.164Z",
      "hide": false,
      "infected": 130,
      "placeId": "yXFfRqV9eQnNiCzS2k6w",
      "recovered": 12
    },
    {
      "hide": false,
      "infected": 6,
      "placeId": "zC03Urt1iJJb2Tf6p0jd",
      "recovered": 0,
      "date": "2020-03-02T02:36:09.418Z",
      "dead": 0,
      "id": "SUGhCuvppw5hpi1Lqkje",
      "createdAt": "2020-03-02T02:36:10.998Z"
    },
    {
      "id": "Wnwk9YN1dOFIBjtchVRP",
      "createdAt": "2020-03-02T02:44:13.110Z",
      "hide": false,
      "infected": 42,
      "placeId": "zvdC0u72Bk5YKNaazZFZ",
      "recovered": 30,
      "date": "2020-03-02T02:44:11.497Z",
      "dead": 1
    }
  ]
}
